{
  "version": 1,
  "status": "active-launch-matrix",
  "description": "MVP city-tier Home Scene launch matrix. This file defines which city + state + music community tuples should be operationally opened first. It is implementation support only and does not override canon.",
  "architectureRule": "Home Scene architecture is invariant. City and music-community identity change scene data, membership, content, activity, and later generated Prime-model structures; they must not change Home/Plot/Events/Archive/player/action architecture, tabs, menus, routing, or runtime behavior.",
  "tiers": {
    "launchTier": "city",
    "deferred": ["state", "national"]
  },
  "cities": [
    {
      "city": "Austin",
      "state": "Texas",
      "latitude": 30.2672,
      "longitude": -97.7431,
      "geofenceRadiusMeters": 50000,
      "launchOpen": true
    },
    {
      "city": "Houston",
      "state": "Texas",
      "latitude": 29.7604,
      "longitude": -95.3698,
      "geofenceRadiusMeters": 50000,
      "launchOpen": true
    },
    {
      "city": "Dallas",
      "state": "Texas",
      "latitude": 32.7767,
      "longitude": -96.797,
      "geofenceRadiusMeters": 50000,
      "launchOpen": true
    },
    {
      "city": "Los Angeles",
      "state": "California",
      "latitude": 34.0522,
      "longitude": -118.2437,
      "geofenceRadiusMeters": 50000,
      "launchOpen": true
    },
    {
      "city": "San Francisco",
      "state": "California",
      "latitude": 37.7749,
      "longitude": -122.4194,
      "geofenceRadiusMeters": 50000,
      "launchOpen": true
    },
    {
      "city": "San Diego",
      "state": "California",
      "latitude": 32.7157,
      "longitude": -117.1611,
      "geofenceRadiusMeters": 50000,
      "launchOpen": true
    }
  ],
  "musicCommunities": [
    "Punk",
    "Electronic",
    "Noise",
    "Spoken Word / Poetry",
    "Indie",
    "Folk",
    "Singer-Songwriter",
    "Hip-Hop"
  ],
  "expectedCityTierSceneCount": 48,
  "missingCommunityRequests": {
    "selectableDuringOnboarding": false,
    "createsSceneImmediately": false,
    "reviewEligibility": "Requires repeated submissions from distinct people in distinct cities before review eligibility. Users still choose one of the approved launch communities to complete onboarding."
  }
}
